[{"details_url":"https://www.lonelyplanet.com/indonesia/yogyakarta/attractions/kraton/a/poi-sig/442276/356573","name":"Kraton","city":"yogyakarta","description":"The cultural and political heart of this fascinating city is the huge palace of the sultans of Yogya.","tags":"History","photos":"http://www.indonesia-tourism.com/yogyakarta/images/keraton_yogyakarta.jpg","latitude":"-7.80504","longitude":"110.364203"},{"details_url":"https://www.lonelyplanet.com/indonesia/yogyakarta/attractions/kota-gede/a/poi-sig/442278/356573","name":"Kota Gede","city":"yogyakarta","description":"Kota Gede, now an upmarket suburb of Yogyakarta, has been the hub of Yogya’s silver industry since the 1930s","tags":"History","photos":"https://kotagedeistimewa.files.wordpress.com/2012/09/kota_gede_jogjakarta1.jpg","latitude":"-7.827947","longitude":"110.399905"},{"details_url":"https://www.lonelyplanet.com/indonesia/java/yogyakarta/attractions/affandi-museum/a/poi-sig/442270/356573","name":"Affandi Museum","city":"yogyakarta","description":"One of Indonesia’s most celebrated artists, Affandi lived and worked in a wonderfully quirky riverside home studio, about 6km east of the town centre","tags":"History","photos":"http://3.bp.blogspot.com/-MZe3jNsDlbk/VdCwxuuGPnI/AAAAAAAAcEk/YNBqnthkvEk/s1600/museum-affandi-Galeri%2B1.jpg","latitude":"-7.782532","longitude":"110.396386"},{"details_url":"https://www.lonelyplanet.com/indonesia/yogyakarta/attractions/taman-sari/a/poi-sig/1189382/356573","name":"Taman Sari","city":"yogyakarta","description":"Just southwest of the kraton is this complex, which once served as a splendid pleasure park of palaces, pools and waterways for the sultan and his entourage.","tags":"Art","photos":"https://dwjt-dontworryjusttra.netdna-ssl.com/wp-content/uploads/2017/01/Yogyakarta-attractions_water-castle-Taman-Sari-main-pool.JPG","latitude":"-7.809657","longitude":"110.359042"},{"details_url":"https://www.lonelyplanet.com/indonesia/yogyakarta/attractions/pasar-beringharjo/a/poi-sig/442280/356573","name":"Pasar Beringharjo","city":"yogyakarta","description":"Yogya’s main market, 800m north of the kraton, is a lively and fascinating place.","tags":"Shopping","photos":"http://www.yogya-backpacker.com/wp-content/uploads/2015/06/Beringharjo_1.jpg","latitude":"-7.798745","longitude":"110.368202"},{"details_url":"https://www.lonelyplanet.com/indonesia/yogyakarta/attractions/sono-budoyo-museum/a/poi-sig/442292/356573","name":"Sono-Budoyo Museum","city":"yogyakarta","description":"This dusty, dimly lit treasure chest is the pick of Yogya’s museums, with a first-class collection of Javanese art","tags":"Art","photos":"http://www.yogya-backpacker.com/wp-content/uploads/2016/05/yogya-backpacker_Sonobudoyo_museum_yogyakarta_1.jpg","latitude":"-7.802094","longitude":"110.36389"},{"details_url":"https://www.lonelyplanet.com/indonesia/yogyakarta/attractions/museum-kareta-kraton/a/poi-sig/442282/356573","name":"Museum Kareta Kraton","city":"yogyakarta","description":"Near the kraton entrance, Museum Kareta Kraton is a wonderful old carriage house with exhibits of the opulent chariots of the sultans","tags":"Art","photos":"https://media-cdn.tripadvisor.com/media/photo-s/07/49/31/59/museum-kereta-keraton.jpg","latitude":"-7.805473","longitude":"110.362716"},{"details_url":"https://www.lonelyplanet.com/indonesia/yogyakarta/attractions/pasar-pasty/a/poi-sig/1189383/356573","name":"Pasar Pasty","city":"yogyakarta","description":"Yogya’s bird market has songbirds, owls, raptors and pigeons (for training), but occasionally also ravens","tags":"Shopping","photos":"https://pegipegi.com/attraction/T04813/48452_T04813_jogjatrip_com_media_objek_0d90d0e4637d647088799f2b87df7e97.jpg","latitude":"-7.825111","longitude":"110.354954"},{"details_url":"https://www.lonelyplanet.com/indonesia/yogyakarta/attractions/museum-sasana-wiratama/a/poi-sig/442284/356573","name":"Museum Sasana Wiratama","city":"yogyakarta","description":"In the northwest of the city, this museum honours the Indonesian hero Prince Pangeran Diponegoro, who was leader of the bloody but futile rebellion of 1825–30 against the Dutch","tags":"History","photos":"http://paketwisatajogja.net/wp-content/uploads/2015/02/tampak-depan-Museum-Sasana-Wiratama.jpg","latitude":"-7.787151","longitude":"110.351416"},{"details_url":"http://www.lonelyplanet.com/indonesia/yogyakarta/shopping/gong/a/poi-sho/1524229/356573","name":"Gong","city":"yogyakarta","description":"A hole-in-the-wall storefront with an incredible collection of authentic antique wooden puppets and masks from across the archipelago","tags":"Shopping","photos":"https://geo3.ggpht.com/cbk?panoid=dI_QS8h6W8HMd86v7P5_lw&output=thumbnail&cb_client=search.TACTILE.gps&thumb=2&w=408&h=200&yaw=174.33423&pitch=0&thumbfov=100","latitude":"-7.818929","longitude":"110.367557"},{"details_url":"http://www.lonelyplanet.com/indonesia/yogyakarta/shopping/ambarrukmo-plaza/a/poi-sho/1189428/356573","name":"Ambarrukmo Plaza","city":"yogyakarta","description":"A regular shopping mall, Ambarukmo Plaza is 5km west of the centre on the road to Prambanan and has a great selection of boutiques, as well as a good food court, a cinema and a supermarket.","tags":"Shopping","photos":"http://2.bp.blogspot.com/-KjFMSkVkCoc/U6F5sdLY8EI/AAAAAAAABUs/-E2v4bZ6OPU/s1600/gedung_selatan.jpg","latitude":"-7.782281","longitude":"110.401362"},{"details_url":"http://www.lonelyplanet.com/indonesia/yogyakarta/shopping/mal-malioboro/a/poi-sho/1292708/356573","name":"Mal Malioboro","city":"yogyakarta","description":"For regular shopping in the heart of town, head to Mal Malioboro.","tags":"Shopping","photos":"https://media-cdn.tripadvisor.com/media/photo-s/0b/6a/0d/0e/malioboro-mall.jpg","latitude":"-7.793165","longitude":"110.36604"},{"details_url":"http://www.lonelyplanet.com/indonesia/yogyakarta/entertainment/sasono-hinggil/a/poi-ent/1189423/356573","name":"Sasono Hinggil","city":"yogyakarta","description":"Most of the centres offer shortened versions for tourists, but here in the alun-alun selatan of the kraton, marathon all-night performances are held every second Saturday from 9pm to 5am","tags":"Art","photos":"http://static.panoramio.com/photos/large/97144153.jpg","latitude":"-7.81114","longitude":"110.363294"},{"details_url":"http://www.lonelyplanet.com/indonesia/yogyakarta/entertainment/amsara/a/poi-ent/1524131/356573","name":"Amsara","city":"yogyakarta","description":"It calls itself an art and coffee shop, but this split-level joint feels like a restaurant and bar with frequent live acts.","tags":"Art","photos":"https://media-cdn.tripadvisor.com/media/photo-s/03/07/e2/ab/ascos-asmara-art-coffee.jpg","latitude":"-7.818588","longitude":"110.364312"},{"details_url":"http://www.lonelyplanet.com/indonesia/yogyakarta/entertainment/purawisata/a/poi-ent/1217207/356573","name":"Purawisata","city":"yogyakarta","description":"This amusement park stages Ramayana performances daily at 8pm.","tags":"Art","photos":"http://www.borobudursunrise.net/images/upload/image/lay%20aout%20Purawisata.png","latitude":"-7.808507","longitude":"110.370153"},{"details_url":"https://www.tripadvisor.com.sg/Attraction_Review-g294230-d8532165-Reviews-Timang_Beach-Yogyakarta_Java.html","name":"Timang Beach","city":"yogyakarta","description":"Timang beach is along the coastline where Idrayanti and Pok Punggul beach are, its about 3 hrs journey from Yogjakarta","tags":"Nature","photos":"http://pamitrantours.com/wp-content/uploads/2016/03/Timang-Beach.jpg","latitude":"-8.17657","longitude":"110.662319"},{"details_url":"https://www.tripadvisor.com.sg/Attraction_Review-g2304080-d7918002-Reviews-Jeep_Wisata_Merapi_Day_Tours-Sleman_Yogyakarta_Java.html","name":"Jeep Wisata Merapi","city":"yogyakarta","description":"Lava Tour Merapi is the best adventure trip you will have in Mount Merapi, we have 24 jeeps that ready to make a great adventure across more places and villages that has destroyed from the last mount Merapi eruption at 2010.","tags":"Nature","photos":"http://assets.kompas.com/data/photo/2013/07/16/1846302jeep-merapii780x390.jpg","latitude":"-7.597713","longitude":"110.439523"},{"details_url":"https://www.tripadvisor.com.sg/Attraction_Review-g3597554-d3845775-Reviews-Wediombo_Beach-Wonosari_Yogyakarta_Java.html","name":"Wediombo Beach","city":"yogyakarta","description":"White sand, hot day, blue ocean, waves. And surfing too(only in the evening and early morning)","tags":"Nature","photos":"http://www.ecopoliticsonline.com/wp-content/uploads/2016/12/pantai-wediombo.jpg","latitude":"-8.184857","longitude":"110.709194"},{"details_url":"https://www.tripadvisor.com.sg/Attraction_Review-g294230-d1125234-Reviews-Merapi_Volcano-Yogyakarta_Java.html","name":"Merapi Volcano","city":"yogyakarta","description":"2,930 M is the peak of Mt Merapi. To get to the peak, it will take you about 4.5 hours. The toughest part of the hike was the last 1 km whereby you are required to walk up a slop about 40 degrees","tags":"Nature","photos":"http://www.indonesia-tourism.com/yogyakarta/images/merapi.jpg","latitude":"-7.540739","longitude":"110.445746"},{"details_url":"https://www.tripadvisor.com.sg/Attraction_Review-g294230-d3874301-Reviews-Pindul_Cave-Yogyakarta_Java.html","name":"Pindul Cave","city":"yogyakarta","description":"Pindul cave located in Bejiharjo village, Karangmojo, around 1 hour driving from central of Jogjakarta. The cave provides a real sense of adventure, but with an easier way without losing your breath to hike or climb.","tags":"Nature","photos":"http://www.yogya-backpacker.com/wp-content/uploads/2015/06/Pindul_1.jpg","latitude":"-7.930689","longitude":"110.647943"}]